[{"name": "University of Michigan Comprehensive Cancer Center", "address": "1500 East Medical Center Drive Ann Arbor, MI 48109-5942", "lat": 42.282078799999994, "long": -83.72731499, "year": "1991", "state_short": "MI", "state_name": "Michigan", "state_fips": 26}, {"name": "Rutgers Cancer Institute of New Jersey", "address": "195 Little Albany Street New Brunswick, NJ 08903-2681", "lat": 40.4964102, "long": -74.44824067, "year": "2002", "state_short": "NJ", "state_name": "New Jersey", "state_fips": 34}, {"name": "Harold C. Simmons Comprehensive Cancer Center", "address": "2201 Inwood Road Dallas, TX 75390", "lat": 32.81746512, "long": -96.84119403, "year": "2010", "state_short": "TX", "state_name": "Texas", "state_fips": 48}, {"name": "Stephenson Cancer Center", "address": "800 NE 10th Street, Oklahoma City, OK 73104", "lat": 35.478111, "long": -97.500752, "year": "2018", "state_short": "OK", "state_name": "Oklahoma", "state_fips": 40}, {"name": "Winship Cancer Institute of Emory University", "address": "1365 Clifton Rd, Atlanta, GA 30322", "lat": 33.793104, "long": -84.319098, "year": "2009", "state_short": "GA", "state_name": "Georgia", "state_fips": 13}, {"name": "Tisch Cancer Institute", "address": "1 Gustave L. Levy Place New York, NY 10029", "lat": 40.79038189999999, "long": -73.95339090000002, "year": "2015", "state_short": "NY", "state_name": "New York", "state_fips": 36}, {"name": "Norris Cotton Cancer Center", "address": "1 Medical Center Dr, Lebanon, NH 03766", "lat": 43.791143, "long": 72.270057, "year": "2014", "state_short": "NH", "state_name": "New Hampshire", "state_fips": 33}, {"name": "Markey Cancer Center", "address": "800 Rose Street, Pavilion CC, Lexington, KY 40536", "lat": 38.03138, "long": -84.506913, "year": "2013", "state_short": "KY", "state_name": "Kentucky", "state_fips": 21}, {"name": "University of Kansas Cancer Center", "address": "4001 Rainbow Blvd, Kansas City, KS 66160", "lat": 39.054909, "long": -94.611704, "year": "2012", "state_short": "KS", "state_name": "Kansas", "state_fips": 20}, {"name": "Hollings Cancer Center", "address": "86 Jonathan Lucas Street Charleston, SC 29425", "lat": 32.783366, "long": -79.94753318, "year": "2009", "state_short": "SC", "state_name": "South Carolina", "state_fips": 45}, {"name": "University of Chicago Comprehensive Cancer Center", "address": "5841 S Maryland Ave MC 2115, Chicago, IL 60637", "lat": 41.788354999999996, "long": -87.604375, "year": "2008", "state_short": "IL", "state_name": "Illinois", "state_fips": 17}, {"name": "University of Maryland Marlene and Stewart Greenebaum Comprehensive Cancer Center", "address": "22 South Greene Street Baltimore, MD 21201", "lat": 39.28827365, "long": -76.62439437, "year": "2008", "state_short": "MD", "state_name": "Maryland", "state_fips": 24}, {"name": "Stanford Cancer Institute", "address": "265 Campus Drive, Palo Alto, CA 94305", "lat": 37.431758, "long": 122.176906, "year": "2007", "state_short": "CA", "state_name": "California", "state_fips": 6}, {"name": "Dan L Duncan Comprehensive Cancer Center", "address": "1 Baylor Plaza, Houston, TX 77030", "lat": 29.710477500000003, "long": -95.39580027, "year": "2007", "state_short": "TX", "state_name": "Texas", "state_fips": 48}, {"name": "University of New Mexico Cancer Research & Treatment Center", "address": "1201 Camino de Salud, Albuquerque, NM 87102", "lat": 35.089847600000006, "long": -106.6211219, "year": "2005", "state_short": "NM", "state_name": "New Mexico", "state_fips": 35}, {"name": "UC Davis Comprehensive Cancer Center", "address": "2279 45th St, Sacramento, CA 95817", "lat": 38.554103999999995, "long": -121.452229, "year": "2002", "state_short": "CA", "state_name": "California", "state_fips": 6}, {"name": "Alvin J. Siteman Cancer Center", "address": "1 Barnes Jewish Hospital Plaza, St. Louis, MO 63110", "lat": 38.635443, "long": -90.264125, "year": "2001", "state_short": "MO", "state_name": "Missouri", "state_fips": 29}, {"name": "Holden Comprehensive Cancer Center", "address": "200 Hawkins Dr, Iowa City, IA 52242", "lat": 41.658268, "long": -91.548372, "year": "2000", "state_short": "IA", "state_name": "Iowa", "state_fips": 19}, {"name": "UCSF Helen Diller Family Comprehensive Cancer Center", "address": "1600 Divisadero St, San Francisco, CA 94115", "lat": 37.78483365, "long": -122.4395943, "year": "1999", "state_short": "CA", "state_name": "California", "state_fips": 6}, {"name": "Indiana University Melvin & Bren Simon Cancer Center", "address": "535 Barnhill Dr, Indianapolis, IN 46202", "lat": 39.775504, "long": -86.177424, "year": "1999", "state_short": "IN", "state_name": "Indiana", "state_fips": 18}, {"name": "Fred & Pamela Buffett Cancer Center", "address": "505 S 45th St, Omaha, NE 68106", "lat": 41.25574, "long": -95.978876, "year": "1999", "state_short": "NE", "state_name": "Nebraska", "state_fips": 31}, {"name": "Moffitt Cancer Center", "address": "12902 USF Magnolia Drive, Tampa, FL 33612", "lat": 28.065561, "long": -82.41940600000001, "year": "1998", "state_short": "FL", "state_name": "Florida", "state_fips": 12}, {"name": "Masonic Cancer Center", "address": "425 E River Pkwy, Minneapolis, MN 55455", "lat": 44.97104985, "long": -93.23249118, "year": "1998", "state_short": "MN", "state_name": "Minnesota", "state_fips": 27}, {"name": "Robert H. Lurie Comprehensive Cancer Center", "address": "675 N St Clair St, Chicago, IL 60611", "lat": 41.89471139, "long": -87.62286015, "year": "1997", "state_short": "IL", "state_name": "Illinois", "state_fips": 17}, {"name": "OHSU Knight Cancer Institute", "address": "3181 SW Sam Jackson Park Rd, Portland, OR 97239", "lat": 45.50056345, "long": -122.688027, "year": "1997", "state_short": "OR", "state_name": "Oregon", "state_fips": 41}, {"name": "University of Hawaii Cancer Center", "address": "677 Ala Moana Blvd Honolulu, HI 96813", "lat": 21.2974258, "long": -157.8622895, "year": "1996", "state_short": "HI", "state_name": "Hawaii", "state_fips": 15}, {"name": "Sidney Kimmel Cancer Center at Thomas Jefferson University", "address": "233 S 10th St, Philadelphia, PA 19107", "lat": 39.9477266, "long": -75.15685792, "year": "1995", "state_short": "PA", "state_name": "Pennsylvania", "state_fips": 42}, {"name": "Vanderbilt-Ingram Cancer Center", "address": "2220 Pierce Ave, Nashville, TN 37232", "lat": 36.1398762, "long": -86.80299980000001, "year": "1995", "state_short": "TN", "state_name": "Tennessee", "state_fips": 47}, {"name": "Chao Family Comprehensive Cancer Center", "address": "101 The City Dr S, Orange, CA 92868", "lat": 33.78722845, "long": -117.8884071, "year": "1994", "state_short": "CA", "state_name": "California", "state_fips": 6}, {"name": "Cancer Therapy & Research Center", "address": "7703 Floyd Curl Dr, San Antonio, TX 78229", "lat": 29.51308465, "long": -98.57772895, "year": "1993", "state_short": "TX", "state_name": "Texas", "state_fips": 48}, {"name": "University of Pittsburgh Cancer Institute", "address": "5115 Centre Ave, Pittsburgh, PA 15232", "lat": 40.45531725, "long": -79.94240169, "year": "1990", "state_short": "PA", "state_name": "Pennsylvania", "state_fips": 42}, {"name": "University of Colorado Cancer Center", "address": "1665 Aurora Court Anschutz Cancer Pavilion, Aurora, CO 80045", "lat": 39.743111, "long": -104.838696, "year": "1988", "state_short": "CO", "state_name": "Colorado", "state_fips": 8}, {"name": "Cold Spring Harbor Laboratory Cancer Center", "address": "1 Bungtown Rd, Cold Spring Harbor, NY 11724", "lat": 40.858168, "long": -73.466298, "year": "1987", "state_short": "NY", "state_name": "New York", "state_fips": 36}, {"name": "Case Comprehensive Cancer Center", "address": "11100 Euclid Ave, Cleveland, OH 44106", "lat": 41.505776000000004, "long": -81.60606907, "year": "1987", "state_short": "OH", "state_name": "Ohio", "state_fips": 39}, {"name": "UVA Cancer Center", "address": "1222 Jefferson Park Ave, Charlottesville, VA 22903", "lat": 38.031836600000005, "long": -78.5077387, "year": "1987", "state_short": "VA", "state_name": "Virginia", "state_fips": 51}, {"name": "Huntsman Cancer Institute", "address": "1950 Circle of Hope Dr, Salt Lake City, UT 84112", "lat": 40.773856, "long": -111.83464, "year": "1986", "state_short": "UT", "state_name": "Utah", "state_fips": 49}, {"name": "The Jackson Laboratory Cancer Center", "address": "600 Main Street Bar Harbor, ME 04609-0800", "lat": 44.36533645, "long": -68.19628254, "year": "1983", "state_short": "ME", "state_name": "Maine", "state_fips": 23}, {"name": "Sanford Burnham Prebys Medical Discovery Institute", "address": "10901 North Torrey Pines Road La Jolla, CA 92037", "lat": 32.901382, "long": -117.24165, "year": "1981", "state_short": "CA", "state_name": "California", "state_fips": 6}, {"name": "City of Hope Comprehensive Cancer Center", "address": "1500 E Duarte Rd, Duarte, CA 91010", "lat": 34.127643799999994, "long": -117.9732449, "year": "1981", "state_short": "CA", "state_name": "California", "state_fips": 6}, {"name": "Arizona Cancer Center", "address": "1515 N Campbell Ave, Tucson, AZ 85724", "lat": 32.24089478, "long": -110.9438858, "year": "1978", "state_short": "AZ", "state_name": "Arizona", "state_fips": 4}, {"name": "Moores Comprehensive Cancer Center", "address": "3855 Health Sciences Dr, La Jolla, CA 92093", "lat": 32.878640600000004, "long": -117.21990100000001, "year": "1978", "state_short": "CA", "state_name": "California", "state_fips": 6}, {"name": "Purdue University Center for Cancer Research", "address": "201 S University St, West Lafayette, IN 47906", "lat": 40.422487, "long": -86.916712, "year": "1978", "state_short": "IN", "state_name": "Indiana", "state_fips": 18}, {"name": "Barbara Ann Karmanos Cancer Institute", "address": "4100 John R St, Detroit, MI 48201", "lat": 42.352332000000004, "long": -83.0567586, "year": "1978", "state_short": "MI", "state_name": "Michigan", "state_fips": 26}, {"name": "St. Jude Children's Research Hospital", "address": "262 Danny Thomas Pl, Memphis, TN 38105", "lat": 35.15438955, "long": -90.04222096, "year": "1977", "state_short": "TN", "state_name": "Tennessee", "state_fips": 47}, {"name": "Jonsson Comprehensive Cancer Center", "address": "100 UCLA, Medical Plaza Driveway, Los Angeles, CA 90024", "lat": 34.064246000000004, "long": -118.44256599999999, "year": "1976", "state_short": "CA", "state_name": "California", "state_fips": 6}, {"name": "Comprehensive Cancer Center - James Cancer Hospital & Solove Research Institute", "address": "460 West 10th Avenue Columbus, OH 43210", "lat": 39.9949641, "long": -83.0193435, "year": "1976", "state_short": "OH", "state_name": "Ohio", "state_fips": 39}, {"name": "Fred Hutchinson / University of Washington Cancer Consortium", "address": "1100 Fairview Ave N, Seattle, WA 98109", "lat": 47.6277525, "long": -122.330673, "year": "1976", "state_short": "WA", "state_name": "Washington", "state_fips": 53}, {"name": "UNC Lineberger Comprehensive Cancer Center", "address": "101 Manning Dr, Chapel Hill, NC 27514", "lat": 35.9050201, "long": -79.05063187, "year": "1975", "state_short": "NC", "state_name": "North Carolina", "state_fips": 37}, {"name": "Laura and Isaac Perlmutter Cancer Center at NYU Langone", "address": "240 East 38th Street, New York, NY 10016", "lat": 40.747582, "long": -73.974698, "year": "1975", "state_short": "NY", "state_name": "New York", "state_fips": 36}, {"name": "Massey Cancer Center", "address": "8222 Meadowbridge Rd, Mechanicsville, VA 23116", "lat": 37.62635724, "long": -77.38617961, "year": "1975", "state_short": "VA", "state_name": "Virginia", "state_fips": 51}, {"name": "Yale Cancer Center", "address": "333 Cedar St, New Haven, CT 06510", "lat": 41.30216878, "long": -72.93355848, "year": "1974", "state_short": "CT", "state_name": "Connecticut", "state_fips": 9}, {"name": "Georgetown Lombardi Comprehensive Cancer Center", "address": "3800 Reservoir Rd NW, Washington, DC 20007", "lat": 38.91148265, "long": -77.07519317, "year": "1974", "state_short": "DC", "state_name": "District of Columbia", "state_fips": 11}, {"name": "David H. Koch Institute for Integrative Cancer Research at MIT", "address": "500 Main St, Cambridge, MA 02142", "lat": 42.362533, "long": -71.08838, "year": "1974", "state_short": "MA", "state_name": "Massachusetts", "state_fips": 25}, {"name": "Roswell Park Cancer Institute", "address": "665 Elm St, Buffalo, NY 14203", "lat": 42.897504299999994, "long": -78.86522099, "year": "1974", "state_short": "NY", "state_name": "New York", "state_fips": 36}, {"name": "Fox Chase Cancer Center", "address": "333 Cottman Ave, Philadelphia, PA 19111", "lat": 40.04395220000001, "long": -75.0534353, "year": "1974", "state_short": "PA", "state_name": "Pennsylvania", "state_fips": 42}, {"name": "Abramson Cancer Center", "address": "3400 Civic Center Boulevard West Pavilion, Philadelphia, PA 19104", "lat": 39.947953000000005, "long": -75.192084, "year": "1974", "state_short": "PA", "state_name": "Pennsylvania", "state_fips": 42}, {"name": "Salk Institute Cancer Center", "address": "10010 North Torrey Pines Road La Jolla, CA 92037", "lat": 32.887025, "long": -117.245792, "year": "1973", "state_short": "CA", "state_name": "California", "state_fips": 6}, {"name": "USC Norris Comprehensive Cancer Center", "address": "1441 Eastlake Avenue Los Angeles, CA 90089-9181", "lat": 34.0755396, "long": -118.20783190000002, "year": "1973", "state_short": "CA", "state_name": "California", "state_fips": 6}, {"name": "Dana-Farber / Harvard Cancer Center", "address": "450 Brookline Ave, Boston, MA 02215", "lat": 42.33762635, "long": -71.10769332, "year": "1973", "state_short": "MA", "state_name": "Massachusetts", "state_fips": 25}, {"name": "Sidney Kimmel Comprehensive Cancer Center", "address": "401 N Broadway, Baltimore, MD 21231", "lat": 39.295401, "long": -76.59387199999999, "year": "1973", "state_short": "MD", "state_name": "Maryland", "state_fips": 24}, {"name": "Mayo Clinic Cancer Center", "address": "200 1st St SW, Rochester, MN 55905", "lat": 44.022446, "long": -92.4680463, "year": "1973", "state_short": "MN", "state_name": "Minnesota", "state_fips": 27}, {"name": "University of Wisconsin Carbone Cancer Center", "address": "600 Highland Ave, Madison, WI 53705", "lat": 43.0726126, "long": -89.42866670000001, "year": "1973", "state_short": "WI", "state_name": "Wisconsin", "state_fips": 55}, {"name": "Duke Cancer Institute", "address": "20 Duke Medicine Cir, Durham, NC 27710", "lat": 36.00495745, "long": -78.93679332, "year": "1972", "state_short": "NC", "state_name": "North Carolina", "state_fips": 37}, {"name": "Wake Forest Comprehensive Cancer Center", "address": "Medical Center Boulevard  Winston-Salem, NC 27157-1082", "lat": 36.089827, "long": -80.271364, "year": "1972", "state_short": "NC", "state_name": "North Carolina", "state_fips": 37}, {"name": "Albert Einstein Cancer Center", "address": "1300 Morris Park Avenue Bronx, NY 10461", "lat": 40.851003000000006, "long": -73.844241, "year": "1972", "state_short": "NY", "state_name": "New York", "state_fips": 36}, {"name": "Herbert Irving Comprehensive Cancer Center", "address": "1130 St Nicholas Ave, New York, NY 10032", "lat": 40.84000525, "long": -73.93964475, "year": "1972", "state_short": "NY", "state_name": "New York", "state_fips": 36}, {"name": "The Wistar Institute Cancer Center", "address": "3601 Spruce Street Philadelphia, PA 19104-4268", "lat": 39.95118895, "long": -75.19587879, "year": "1972", "state_short": "PA", "state_name": "Pennsylvania", "state_fips": 42}, {"name": "UAB Comprehensive Cancer Center", "address": "1824 6th Ave S, Birmingham, AL 35233", "lat": 33.506496500000004, "long": -86.8026268, "year": "1971", "state_short": "AL", "state_name": "Alabama", "state_fips": 1}, {"name": "Memorial Sloan-Kettering Cancer Center", "address": "1275 York Avenue New York, NY 10021", "lat": 40.76445335, "long": -73.95694408, "year": "1971", "state_short": "NY", "state_name": "New York", "state_fips": 36}, {"name": "MD Anderson Cancer Center", "address": "1515 Holcombe Blvd, Houston, TX 77030", "lat": 29.70766895, "long": -95.39762257, "year": "1971", "state_short": "TX", "state_name": "Texas", "state_fips": 48}]